Site;Latitude;Longitude;Researcher
Paramo El verjon;4.560674;-74.023756;Andres Zuniga
Volcan Dona Juana;1.469315;-76.920484;Catalina Gonzalez
Cueva de los Guácharos;1.365161;-76.221651;Melissa Martinez
Deposito Pereira;4.7175;-74.623333;Catalina Gonzalez
Cienaga de Santa Marta;10.842718;-74.500314;Lina Gutierrez
